[
  {
    "label": "Solecto Lindo",
    "address": "4430 Wade Green Rd.",
    "city": "Kennesaw",
    "state": "GA",
    "lat": 34.036831,
    "lon": -84.615082,
    "boxes": null,
    "volunteer": ""
  },
  {
    "label": "Angry Crab Shack",
    "address": "3150 Cobb Parkway NW",
    "city": "Kennesaw",
    "state": "GA",
    "lat": 34.004110,
    "lon": -84.646920,
    "boxes": null,
    "volunteer": ""
  },
  {
    "label": "Carrabbas Italian Grill",
    "address": "1160 Ernest Barett Pkwy",
    "city": "Kennesaw",
    "state": "GA",
    "lat": 34.008430,
    "lon": -84.597511,
    "boxes": null,
    "volunteer": ""
  },
  {
    "label": "Broken Anchor Winery",
    "address": "3335 Cobb Parkway NW",
    "city": "Acworth",
    "state": "GA",
    "lat": 34.013520,
    "lon": -84.654810,
    "boxes": null,
    "volunteer": ""
  },
  {
    "label": "Holbrook Life",
    "address": "4491 South Main St",
    "city": "Acworth",
    "state": "GA",
    "lat": 34.047510,
    "lon": -84.679190,
    "boxes": null,
    "volunteer": ""
  },
  {
    "label": "Cobblestone Golf Course",
    "address": "4200 Nance Rd",
    "city": "Acworth",
    "state": "GA",
    "lat": 34.084721,
    "lon": -84.707733,
    "boxes": null,
    "volunteer": ""
  },
  {
    "label": "Celebration Village Acworth",
    "address": "4460 Celebration Blvd.",
    "city": "Acworth",
    "state": "GA",
    "lat": 34.043590,
    "lon": -84.678200,
    "boxes": null,
    "volunteer": ""
  },
  {
    "label": "The Tomatoes",
    "address": "840 Ernest W Barrett Pkwy. NW",
    "city": "Kennesaw",
    "state": "GA",
    "lat": 34.002980,
    "lon": -84.605060,
    "boxes": null,
    "volunteer": ""
  },
  {
    "label": "Wild Ginger",
    "address": "2201 Savoy Dr Chamblee",
    "city": "Kennesaw",
    "state": "GA",
    "lat": 33.886360,
    "lon": -84.305380,
    "boxes": null,
    "volunteer": ""
  },
  {
    "label": "1885 Grill",
    "address": "4438 Cherokee St",
    "city": "Acworth",
    "state": "GA",
    "lat": 34.062970,
    "lon": -84.677840,
    "boxes": null,
    "volunteer": ""
  },
  {
    "label": "1885 Grill",
    "address": "2840 S Main Street",
    "city": "Kennesaw",
    "state": "GA",
    "lat": 34.018500,
    "lon": -84.616330,
    "boxes": null,
    "volunteer": ""
  },
  {
    "label": "Fox Tale Bookstore",
    "address": "105 E. Maine Street #138",
    "city": "Woodstock",
    "state": "GA",
    "lat": 34.101730,
    "lon": -84.519590,
    "boxes": 1,
    "volunteer": "Molly"
  },
  {
    "label": "Black Rifle Company",
    "address": "10971 Highway 92",
    "city": "Woodstock",
    "state": "GA",
    "lat": 34.098760,
    "lon": -84.567110,
    "boxes": 1,
    "volunteer": "Molly"
  },
  {
    "label": "Firehouse #14",
    "address": "225 Arnold Mill Road",
    "city": "Woodstock",
    "state": "GA",
    "lat": 34.103030,
    "lon": -84.515640,
    "boxes": null,
    "volunteer": "Mo M"
  },
  {
    "label": "All About Health",
    "address": "12195 Highway 92 #112",
    "city": "Woodstock",
    "state": "GA",
    "lat": 34.088360,
    "lon": -84.595950,
    "boxes": 1,
    "volunteer": "Molly"
  },
  {
    "label": "Reformation Brewery",
    "address": "105 Elm Street",
    "city": "Woodstock",
    "state": "GA",
    "lat": 34.102600,
    "lon": -84.518600,
    "boxes": null,
    "volunteer": ""
  },
  {
    "label": "Woodstock City Hall",
    "address": "12453 Hwy 92",
    "city": "Woodstock",
    "state": "GA",
    "lat": 34.088032,
    "lon": -84.601555,
    "boxes": null,
    "volunteer": "Mo M"
  },
  {
    "label": "Jekyl Brewing Company",
    "address": "8634 Main Street",
    "city": "Woodstock",
    "state": "GA",
    "lat": 34.099030,
    "lon": -84.518880,
    "boxes": 1,
    "volunteer": "Molly"
  },
  {
    "label": "Jeep Dealership",
    "address": "8811 Hwy 92",
    "city": "Woodstock",
    "state": "GA",
    "lat": 34.097000,
    "lon": -84.536000,
    "boxes": null,
    "volunteer": "Molly"
  },
  {
    "label": "Truck and Tap",
    "address": "8640 E. Main Street",
    "city": "Woodstock",
    "state": "GA",
    "lat": 34.100100,
    "lon": -84.519800,
    "boxes": 1,
    "volunteer": "Molly"
  },
  {
    "label": "Learning Express",
    "address": "2295 Town Lake Pwy",
    "city": "Woodstock",
    "state": "GA",
    "lat": 34.093400,
    "lon": -84.542800,
    "boxes": 1,
    "volunteer": "Molly"
  },
  {
    "label": "Ping Segars Salon",
    "address": "200 North Street",
    "city": "Canton",
    "state": "GA",
    "lat": 34.241510,
    "lon": -84.492000,
    "boxes": 1,
    "volunteer": "Molly"
  },
  {
    "label": "Alma Coffee",
    "address": "3448 Holly Springs Pkwy",
    "city": "Canton",
    "state": "GA",
    "lat": 34.175000,
    "lon": -84.482800,
    "boxes": null,
    "volunteer": "Molly"
  },
  {
    "label": "Bass Pro Shop",
    "address": "152 Northpoint Pkwy",
    "city": "Acworth",
    "state": "GA",
    "lat": 34.075480,
    "lon": -84.661640,
    "boxes": 2,
    "volunteer": "Molly"
  },
  {
    "label": "Ralph's Tavern",
    "address": "4290 Bells Ferry Road",
    "city": "Kennesaw",
    "state": "GA",
    "lat": 34.037000,
    "lon": -84.580000,
    "boxes": 2,
    "volunteer": "Molly"
  },
  {
    "label": "Troy Roberson's Office",
    "address": "4286 Bells Ferry Road, Ste 214",
    "city": "Kennesaw",
    "state": "GA",
    "lat": 34.037200,
    "lon": -84.579500,
    "boxes": 1,
    "volunteer": "Molly"
  },
  {
    "label": "St Catherine of Siena",
    "address": "1618 Ben King Road",
    "city": "Kennesaw",
    "state": "GA",
    "lat": 33.987000,
    "lon": -84.646000,
    "boxes": 1,
    "volunteer": "Molly"
  },
  {
    "label": "Big Woods Goods",
    "address": "3505 Big Woods Dr",
    "city": "Canton",
    "state": "GA",
    "lat": 34.174820,
    "lon": -84.487010,
    "boxes": null,
    "volunteer": "Tony"
  },
  {
    "label": "Cues Billiards",
    "address": "3459 Acworth Due West Rd",
    "city": "Acworth",
    "state": "GA",
    "lat": 34.041000,
    "lon": -84.721000,
    "boxes": null,
    "volunteer": "Tony"
  },
  {
    "label": "Stout's Growlers",
    "address": "1000 Tanger Dr Suite 400",
    "city": "Locust Grove",
    "state": "GA",
    "lat": 33.364400,
    "lon": -84.103000,
    "boxes": null,
    "volunteer": "Tony"
  },
  {
    "label": "Singleton Marine",
    "address": "8832 Main St",
    "city": "Woodstock",
    "state": "GA",
    "lat": 34.101830,
    "lon": -84.520930,
    "boxes": null,
    "volunteer": "Tony"
  },
  {
    "label": "Workout Anytime Woodstock",
    "address": "12195 Hwy 92 Ste 116",
    "city": "Woodstock",
    "state": "GA",
    "lat": 34.088360,
    "lon": -84.595950,
    "boxes": null,
    "volunteer": ""
  },
  {
    "label": "Yesteryear Flea Market",
    "address": "10385 Main St",
    "city": "Woodstock",
    "state": "GA",
    "lat": 34.116630,
    "lon": -84.536030,
    "boxes": null,
    "volunteer": ""
  },
  {
    "label": "Buddha Brothers Ink",
    "address": "9010 Main St",
    "city": "Woodstock",
    "state": "GA",
    "lat": 34.104240,
    "lon": -84.524450,
    "boxes": null,
    "volunteer": ""
  },
  {
    "label": "Reformation Brewery (Canton)",
    "address": "225 Reformation Pkwy Suite 500",
    "city": "Canton",
    "state": "GA",
    "lat": 34.246479,
    "lon": -84.492264,
    "boxes": null,
    "volunteer": ""
  },
  {
    "label": "Vintage Estates",
    "address": "13230 Hwy 92",
    "city": "Woodstock",
    "state": "GA",
    "lat": 34.081700,
    "lon": -84.619100,
    "boxes": null,
    "volunteer": ""
  },
  {
    "label": "Woodstock Funeral Home",
    "address": "8855 Main St",
    "city": "Woodstock",
    "state": "GA",
    "lat": 34.102220,
    "lon": -84.521500,
    "boxes": null,
    "volunteer": ""
  },
  {
    "label": "Culver's",
    "address": "11405 Highway 92",
    "city": "Woodstock",
    "state": "GA",
    "lat": 34.093950,
    "lon": -84.580210,
    "boxes": null,
    "volunteer": ""
  },
  {
    "label": "The Tavern at Town Lake",
    "address": "1015 Rose Creek Dr",
    "city": "Woodstock",
    "state": "GA",
    "lat": 34.108420,
    "lon": -84.545550,
    "boxes": null,
    "volunteer": "Mo M"
  },
  {
    "label": "Eggs Up Grill",
    "address": "2990 Shallowford Rd",
    "city": "Marietta",
    "state": "GA",
    "lat": 34.004940,
    "lon": -84.453410,
    "boxes": null,
    "volunteer": "Mo M"
  },
  {
    "label": "Rally Point Grille & Taproom",
    "address": "112 E Main St",
    "city": "Woodstock",
    "state": "GA",
    "lat": 34.101730,
    "lon": -84.519590,
    "boxes": null,
    "volunteer": "Mo M"
  },
  {
    "label": "Hennessy Honda of Woodstock",
    "address": "8931 Highway 92",
    "city": "Woodstock",
    "state": "GA",
    "lat": 34.097000,
    "lon": -84.536000,
    "boxes": null,
    "volunteer": "Mo M"
  },
  {
    "label": "Guston's Grille (Woodstock)",
    "address": "12195 Highway 92 Suite 156",
    "city": "Woodstock",
    "state": "GA",
    "lat": 34.088360,
    "lon": -84.595950,
    "boxes": null,
    "volunteer": "Mo M"
  },
  {
    "label": "Jersey Mike's Subs",
    "address": "2960 Sandy Plains Rd Ste 108",
    "city": "Marietta",
    "state": "GA",
    "lat": 34.015020,
    "lon": -84.492570,
    "boxes": null,
    "volunteer": "Mo M"
  },
  {
    "label": "The Senior Center (Woodstock)",
    "address": "223 Arnold Mill Rd",
    "city": "Woodstock",
    "state": "GA",
    "lat": 34.102660,
    "lon": -84.515320,
    "boxes": null,
    "volunteer": "Mo M"
  },
  {
    "label": "Stars and Strikes Family Entertainment Center",
    "address": "10010 Highway 92",
    "city": "Woodstock",
    "state": "GA",
    "lat": 34.099040,
    "lon": -84.551600,
    "boxes": null,
    "volunteer": "Mo M"
  },
  {
    "label": "Buffalo's Cafe",
    "address": "12035 Highway 92",
    "city": "Woodstock",
    "state": "GA",
    "lat": 34.089859,
    "lon": -84.592529,
    "boxes": null,
    "volunteer": ""
  },
  {
    "label": "Cribs 2 Cradles",
    "address": "3005 S Cherokee Ln",
    "city": "Woodstock",
    "state": "GA",
    "lat": 34.116550,
    "lon": -84.518600,
    "boxes": null,
    "volunteer": ""
  },
  {
    "label": "Southern Comforts Consignments",
    "address": "8610 Main St",
    "city": "Woodstock",
    "state": "GA",
    "lat": 34.098820,
    "lon": -84.518600,
    "boxes": null,
    "volunteer": "Mo M"
  },
  {
    "label": "Primrose School of Woodstock",
    "address": "12115 Highway 92",
    "city": "Woodstock",
    "state": "GA",
    "lat": 34.089000,
    "lon": -84.594000,
    "boxes": null,
    "volunteer": ""
  },
  {
    "label": "Cherokee County Family YMCA",
    "address": "151 Waleska St",
    "city": "Canton",
    "state": "GA",
    "lat": 34.238000,
    "lon": -84.495000,
    "boxes": null,
    "volunteer": "Shoup"
  },
  {
    "label": "441 BBQ",
    "address": "1494 Riverstone Pkwy",
    "city": "Canton",
    "state": "GA",
    "lat": 34.214000,
    "lon": -84.496000,
    "boxes": null,
    "volunteer": "Shoup"
  },
  {
    "label": "Sidelines Grille at Riverstone",
    "address": "10511 Bells Ferry Rd",
    "city": "Canton",
    "state": "GA",
    "lat": 34.154000,
    "lon": -84.521000,
    "boxes": null,
    "volunteer": "Shoup"
  },
  {
    "label": "Cherokee County Fire Station 1",
    "address": "5984 Cumming Hwy",
    "city": "Canton",
    "state": "GA",
    "lat": 34.288250,
    "lon": -84.394170,
    "boxes": null,
    "volunteer": "Shoup"
  },
  {
    "label": "Great Sky Clubhouse",
    "address": "1000 Great Sky Pkwy",
    "city": "Canton",
    "state": "GA",
    "lat": 34.285000,
    "lon": -84.453000,
    "boxes": null,
    "volunteer": "Shoup"
  },
  {
    "label": "The Bluffs at Great Sky",
    "address": "2020 Great Sky Pkwy",
    "city": "Canton",
    "state": "GA",
    "lat": 34.292550,
    "lon": -84.459000,
    "boxes": null,
    "volunteer": "Shoup"
  },
  {
    "label": "Williamson Bros. Bar-B-Q",
    "address": "1600 Marietta Hwy",
    "city": "Canton",
    "state": "GA",
    "lat": 34.218500,
    "lon": -84.495000,
    "boxes": null,
    "volunteer": "Shoup"
  },
  {
    "label": "Ollie's Bargain Outlet",
    "address": "1820 Marietta Hwy",
    "city": "Canton",
    "state": "GA",
    "lat": 34.213600,
    "lon": -84.495000,
    "boxes": null,
    "volunteer": "Shoup"
  },
  {
    "label": "Big East BBQ",
    "address": "5835 Hickory Flat Hwy",
    "city": "Canton",
    "state": "GA",
    "lat": 34.227000,
    "lon": -84.412000,
    "boxes": null,
    "volunteer": "Shoup"
  },
  {
    "label": "City BBQ",
    "address": "8040 Alabama Rd",
    "city": "Woodstock",
    "state": "GA",
    "lat": 34.120000,
    "lon": -84.457000,
    "boxes": null,
    "volunteer": "Molly"
  },
  {
    "label": "The Lodge at Bridgemill",
    "address": "10451 Bells Ferry Rd",
    "city": "Canton",
    "state": "GA",
    "lat": 34.152000,
    "lon": -84.519000,
    "boxes": null,
    "volunteer": "Molly"
  },
  {
    "label": "Holbrook Asst Living",
    "address": "4491 S Main Street",
    "city": "Acworth",
    "state": "GA",
    "lat": 34.047510,
    "lon": -84.679190,
    "boxes": null,
    "volunteer": "Molly"
  },
  {
    "label": "Lazy Labrador Coffee House",
    "address": "2886 Cherokee St NW",
    "city": "Kennesaw",
    "state": "GA",
    "lat": 34.020000,
    "lon": -84.616000,
    "boxes": null,
    "volunteer": "Molly"
  },
  {
    "label": "Kennesaw State University",
    "address": "",
    "city": "Kennesaw",
    "state": "GA",
    "lat": 34.038100,
    "lon": -84.582900,
    "boxes": null,
    "volunteer": "Molly"
  }
]