[
  {
    "label": "Solecto Lindo",
    "address": "4430 Wade Green Rd.",
    "city": "Kennesaw",
    "state": "GA",
    "lat": 34.0615129,
    "lon": -84.5905295,
    "boxes": null,
    "volunteer": ""
  },
  {
    "label": "Angry Crab Shack",
    "address": "3150 Cobb Parkway NW",
    "city": "Kennesaw",
    "state": "GA",
    "lat": 34.031536,
    "lon": -84.65809209999999,
    "boxes": null,
    "volunteer": ""
  },
  {
    "label": "Carrabbas Italian Grill",
    "address": "1160 Ernest Barett Pkwy",
    "city": "Kennesaw",
    "state": "GA",
    "lat": 34.0012668,
    "lon": -84.5834237,
    "boxes": null,
    "volunteer": ""
  },
  {
    "label": "Broken Anchor Winery",
    "address": "3335 Cobb Parkway NW",
    "city": "Acworth",
    "state": "GA",
    "lat": 34.0336273,
    "lon": -84.6835406,
    "boxes": null,
    "volunteer": ""
  },
  {
    "label": "Holbrook Life",
    "address": "4491 South Main St",
    "city": "Acworth",
    "state": "GA",
    "lat": 34.0636462,
    "lon": -84.6673912,
    "boxes": null,
    "volunteer": ""
  },
  {
    "label": "Cobblestone Golf Course",
    "address": "4200 Nance Rd",
    "city": "Acworth",
    "state": "GA",
    "lat": 34.0500403,
    "lon": -84.6724672,
    "boxes": null,
    "volunteer": ""
  },
  {
    "label": "Celebration Village Acworth",
    "address": "4460 Celebration Blvd.",
    "city": "Acworth",
    "state": "GA",
    "lat": 34.039485,
    "lon": -84.68158059999999,
    "boxes": null,
    "volunteer": ""
  },
  {
    "label": "The Tomatoes",
    "address": "840 Ernest W Barrett Pkwy. NW",
    "city": "Kennesaw",
    "state": "GA",
    "lat": 34.0054778,
    "lon": -84.57616449999999,
    "boxes": null,
    "volunteer": ""
  },
  {
    "label": "Wild Ginger",
    "address": "2201 Savoy Dr Chamblee",
    "city": "Kennesaw",
    "state": "GA",
    "lat": 33.9192604,
    "lon": -84.2982756,
    "boxes": null,
    "volunteer": ""
  },
  {
    "label": "1885 Grill",
    "address": "4438 Cherokee St",
    "city": "Acworth",
    "state": "GA",
    "lat": 34.06769250000001,
    "lon": -84.6773989,
    "boxes": null,
    "volunteer": ""
  },
  {
    "label": "1885 Grill",
    "address": "2840 S Main Street",
    "city": "Kennesaw",
    "state": "GA",
    "lat": 34.022827,
    "lon": -84.61499309999999,
    "boxes": null,
    "volunteer": ""
  },
  {
    "label": "Fox Tale Bookstore",
    "address": "105 E. Maine Street #138",
    "city": "Woodstock",
    "state": "GA",
    "lat": 34.1021326,
    "lon": -84.5183473,
    "boxes": 1,
    "volunteer": "Molly"
  },
  {
    "label": "Black Rifle Company",
    "address": "10971 Highway 92",
    "city": "Woodstock",
    "state": "GA",
    "lat": 34.0870377,
    "lon": -84.5046744,
    "boxes": 1,
    "volunteer": "Molly"
  },
  {
    "label": "Firehouse #14",
    "address": "225 Arnold Mill Road",
    "city": "Woodstock",
    "state": "GA",
    "lat": 34.101731,
    "lon": -84.5097633,
    "boxes": null,
    "volunteer": "Mo M"
  },
  {
    "label": "All About Health",
    "address": "12195 Highway 92 #112",
    "city": "Woodstock",
    "state": "GA",
    "lat": 34.0895091,
    "lon": -84.4832749,
    "boxes": 1,
    "volunteer": "Molly"
  },
  {
    "label": "Reformation Brewery",
    "address": "105 Elm Street",
    "city": "Woodstock",
    "state": "GA",
    "lat": 34.0999444,
    "lon": -84.5205379,
    "boxes": null,
    "volunteer": ""
  },
  {
    "label": "Woodstock City Hall",
    "address": "12453 Hwy 92",
    "city": "Woodstock",
    "state": "GA",
    "lat": 34.0879897,
    "lon": -84.48087439999999,
    "boxes": null,
    "volunteer": "Mo M"
  },
  {
    "label": "Jekyl Brewing Company",
    "address": "8634 Main Street",
    "city": "Woodstock",
    "state": "GA",
    "lat": 34.1005134,
    "lon": -84.5198082,
    "boxes": 1,
    "volunteer": "Molly"
  },
  {
    "label": "Jeep Dealership",
    "address": "8811 Hwy 92",
    "city": "Woodstock",
    "state": "GA",
    "lat": 34.0877638,
    "lon": -84.54272639999999,
    "boxes": null,
    "volunteer": "Molly"
  },
  {
    "label": "Truck and Tap",
    "address": "8640 E. Main Street",
    "city": "Woodstock",
    "state": "GA",
    "lat": 34.1004676,
    "lon": -84.5192544,
    "boxes": 1,
    "volunteer": "Molly"
  },
  {
    "label": "Learning Express",
    "address": "2295 Town Lake Pwy",
    "city": "Woodstock",
    "state": "GA",
    "lat": 34.1128235,
    "lon": -84.5555509,
    "boxes": 1,
    "volunteer": "Molly"
  },
  {
    "label": "Ping Segars Salon",
    "address": "200 North Street",
    "city": "Canton",
    "state": "GA",
    "lat": 34.2377181,
    "lon": -84.4925897,
    "boxes": 1,
    "volunteer": "Molly"
  },
  {
    "label": "Alma Coffee",
    "address": "3448 Holly Springs Pkwy",
    "city": "Canton",
    "state": "GA",
    "lat": 34.1645037,
    "lon": -84.50667659999999,
    "boxes": null,
    "volunteer": "Molly"
  },
  {
    "label": "Bass Pro Shop",
    "address": "152 Northpoint Pkwy",
    "city": "Acworth",
    "state": "GA",
    "lat": 34.0817051,
    "lon": -84.65066639999999,
    "boxes": 2,
    "volunteer": "Molly"
  },
  {
    "label": "Ralph's Tavern",
    "address": "4290 Bells Ferry Road",
    "city": "Kennesaw",
    "state": "GA",
    "lat": 34.0552322,
    "lon": -84.5535041,
    "boxes": 2,
    "volunteer": "Molly"
  },
  {
    "label": "Troy Roberson's Office",
    "address": "4286 Bells Ferry Road, Ste 214",
    "city": "Kennesaw",
    "state": "GA",
    "lat": 34.054354,
    "lon": -84.5539319,
    "boxes": 1,
    "volunteer": "Molly"
  },
  {
    "label": "St Catherine of Siena",
    "address": "1618 Ben King Road",
    "city": "Kennesaw",
    "state": "GA",
    "lat": 34.0275966,
    "lon": -84.5998276,
    "boxes": 1,
    "volunteer": "Molly"
  },
  {
    "label": "Big Woods Goods",
    "address": "350 Ronnell Rd",
    "city": "Holly Springs",
    "state": "GA",
    "lat": 34.1635027,
    "lon": -84.5106634,
    "boxes": null,
    "volunteer": "Tony"
  },
  {
    "label": "Cues Billiards",
    "address": "3459 Acworth Due West Rd",
    "city": "Acworth",
    "state": "GA",
    "lat": 34.0370046,
    "lon": -84.6759438,
    "boxes": null,
    "volunteer": "Tony"
  },
  {
    "label": "Stout's Growlers",
    "address": "1000 Tanger Dr Suite 400",
    "city": "Locust Grove",
    "state": "GA",
    "lat": 33.3482005,
    "lon": -84.1220737,
    "boxes": null,
    "volunteer": "Tony"
  },
  {
    "label": "Singleton Marine",
    "address": "8832 Main St",
    "city": "Woodstock",
    "state": "GA",
    "lat": 34.0975345,
    "lon": -84.520727,
    "boxes": null,
    "volunteer": "Tony"
  },
  {
    "label": "Workout Anytime Woodstock",
    "address": "12195 Hwy 92 Ste 116",
    "city": "Woodstock",
    "state": "GA",
    "lat": 34.0882689,
    "lon": -84.47265999999999,
    "boxes": null,
    "volunteer": ""
  },
  {
    "label": "Yesteryear Flea Market",
    "address": "10385 Main St",
    "city": "Woodstock",
    "state": "GA",
    "lat": 34.075553,
    "lon": -84.5220162,
    "boxes": null,
    "volunteer": ""
  },
  {
    "label": "Buddha Brothers Ink",
    "address": "9010 Main St",
    "city": "Woodstock",
    "state": "GA",
    "lat": 34.0949297,
    "lon": -84.5207226,
    "boxes": null,
    "volunteer": ""
  },
  {
    "label": "Reformation Brewery (Canton)",
    "address": "225 Reformation Pkwy Suite 500",
    "city": "Canton",
    "state": "GA",
    "lat": 34.2345978,
    "lon": -84.4955256,
    "boxes": null,
    "volunteer": ""
  },
  {
    "label": "Vintage Estates",
    "address": "13230 Hwy 92",
    "city": "Woodstock",
    "state": "GA",
    "lat": 33.6287084,
    "lon": -84.6213984,
    "boxes": null,
    "volunteer": ""
  },
  {
    "label": "Woodstock Funeral Home",
    "address": "8855 Main St",
    "city": "Woodstock",
    "state": "GA",
    "lat": 34.097339,
    "lon": -84.51997229999999,
    "boxes": null,
    "volunteer": ""
  },
  {
    "label": "Culver's",
    "address": "11405 Highway 92",
    "city": "Woodstock",
    "state": "GA",
    "lat": 34.0865903,
    "lon": -84.5017669,
    "boxes": null,
    "volunteer": ""
  },
  {
    "label": "The Tavern at Town Lake",
    "address": "1015 Rose Creek Dr",
    "city": "Woodstock",
    "state": "GA",
    "lat": 34.1256045,
    "lon": -84.57306229999999,
    "boxes": null,
    "volunteer": "Mo M"
  },
  {
    "label": "Eggs Up Grill",
    "address": "2990 Shallowford Rd",
    "city": "Marietta",
    "state": "GA",
    "lat": 34.036204,
    "lon": -84.4645685,
    "boxes": null,
    "volunteer": "Mo M"
  },
  {
    "label": "Rally Point Grille & Taproom",
    "address": "112 E Main St",
    "city": "Woodstock",
    "state": "GA",
    "lat": 34.0986628,
    "lon": -84.5199604,
    "boxes": null,
    "volunteer": "Mo M"
  },
  {
    "label": "Hennessy Honda of Woodstock",
    "address": "8931 Highway 92",
    "city": "Woodstock",
    "state": "GA",
    "lat": 34.0861026,
    "lon": -84.5415489,
    "boxes": null,
    "volunteer": "Mo M"
  },
  {
    "label": "Guston's Grille (Woodstock)",
    "address": "12195 Highway 92 Suite 156",
    "city": "Woodstock",
    "state": "GA",
    "lat": 34.0889497,
    "lon": -84.4825549,
    "boxes": null,
    "volunteer": "Mo M"
  },
  {
    "label": "Jersey Mike's Subs",
    "address": "2960 Sandy Plains Rd Ste 108",
    "city": "Marietta",
    "state": "GA",
    "lat": 34.0233416,
    "lon": -84.4853296,
    "boxes": null,
    "volunteer": "Mo M"
  },
  {
    "label": "The Senior Center (Woodstock)",
    "address": "223 Arnold Mill Rd",
    "city": "Woodstock",
    "state": "GA",
    "lat": 34.1017181,
    "lon": -84.5103992,
    "boxes": null,
    "volunteer": "Mo M"
  },
  {
    "label": "Stars and Strikes Family Entertainment Center",
    "address": "10010 Highway 92",
    "city": "Woodstock",
    "state": "GA",
    "lat": 34.084374,
    "lon": -84.522649,
    "boxes": null,
    "volunteer": "Mo M"
  },
  {
    "label": "Buffalo's Cafe",
    "address": "12035 Highway 92",
    "city": "Woodstock",
    "state": "GA",
    "lat": 34.0886901,
    "lon": -84.48579389999999,
    "boxes": null,
    "volunteer": ""
  },
  {
    "label": "Cribs 2 Cradles",
    "address": "3005 S Cherokee Ln",
    "city": "Woodstock",
    "state": "GA",
    "lat": 34.0793269,
    "lon": -84.4695289,
    "boxes": null,
    "volunteer": ""
  },
  {
    "label": "Southern Comforts Consignments",
    "address": "8610 Main St",
    "city": "Woodstock",
    "state": "GA",
    "lat": 34.1007835,
    "lon": -84.5198063,
    "boxes": null,
    "volunteer": "Mo M"
  },
  {
    "label": "Primrose School of Woodstock",
    "address": "12115 Highway 92",
    "city": "Woodstock",
    "state": "GA",
    "lat": 34.0865903,
    "lon": -84.5017669,
    "boxes": null,
    "volunteer": ""
  },
  {
    "label": "Cherokee County Family YMCA",
    "address": "151 Waleska St",
    "city": "Canton",
    "state": "GA",
    "lat": 34.2422119,
    "lon": -84.4932927,
    "boxes": null,
    "volunteer": "Shoup"
  },
  {
    "label": "441 BBQ",
    "address": "1494 Riverstone Pkwy",
    "city": "Canton",
    "state": "GA",
    "lat": 34.2522654,
    "lon": -84.4695024,
    "boxes": null,
    "volunteer": "Shoup"
  },
  {
    "label": "Sidelines Grille at Riverstone",
    "address": "10511 Bells Ferry Rd",
    "city": "Canton",
    "state": "GA",
    "lat": 34.1930823,
    "lon": -84.5384589,
    "boxes": null,
    "volunteer": "Shoup"
  },
  {
    "label": "Cherokee County Fire Station 1",
    "address": "5984 Cumming Hwy",
    "city": "Canton",
    "state": "GA",
    "lat": 34.2406123,
    "lon": -84.3892164,
    "boxes": null,
    "volunteer": "Shoup"
  },
  {
    "label": "Great Sky Clubhouse",
    "address": "1000 Great Sky Pkwy",
    "city": "Canton",
    "state": "GA",
    "lat": 34.2814971,
    "lon": -84.4868924,
    "boxes": null,
    "volunteer": "Shoup"
  },
  {
    "label": "The Bluffs at Great Sky",
    "address": "2020 Great Sky Pkwy",
    "city": "Canton",
    "state": "GA",
    "lat": 34.2814971,
    "lon": -84.4868924,
    "boxes": null,
    "volunteer": "Shoup"
  },
  {
    "label": "Williamson Bros. Bar-B-Q",
    "address": "1600 Marietta Hwy",
    "city": "Canton",
    "state": "GA",
    "lat": 34.2244044,
    "lon": -84.5013578,
    "boxes": null,
    "volunteer": "Shoup"
  },
  {
    "label": "Ollie's Bargain Outlet",
    "address": "1820 Marietta Hwy",
    "city": "Canton",
    "state": "GA",
    "lat": 34.222717,
    "lon": -84.50317559999999,
    "boxes": null,
    "volunteer": "Shoup"
  },
  {
    "label": "Big East BBQ",
    "address": "5835 Hickory Flat Hwy",
    "city": "Canton",
    "state": "GA",
    "lat": 34.1779714,
    "lon": -84.4260237,
    "boxes": null,
    "volunteer": "Shoup"
  },
  {
    "label": "City BBQ",
    "address": "8040 Alabama Rd",
    "city": "Woodstock",
    "state": "GA",
    "lat": 34.0845803,
    "lon": -84.5532825,
    "boxes": null,
    "volunteer": "Molly"
  },
  {
    "label": "The Lodge at Bridgemill",
    "address": "10451 Bells Ferry Rd",
    "city": "Canton",
    "state": "GA",
    "lat": 34.1944357,
    "lon": -84.53660769999999,
    "boxes": null,
    "volunteer": "Molly"
  },
  {
    "label": "Holbrook Asst Living",
    "address": "4491 S Main Street",
    "city": "Acworth",
    "state": "GA",
    "lat": 34.0636462,
    "lon": -84.6673912,
    "boxes": null,
    "volunteer": "Molly"
  },
  {
    "label": "Lazy Labrador Coffee House",
    "address": "2886 Cherokee St NW",
    "city": "Kennesaw",
    "state": "GA",
    "lat": 34.0237292,
    "lon": -84.6128257,
    "boxes": null,
    "volunteer": "Molly"
  },
  {
    "label": "Kennesaw State University",
    "address": "",
    "city": "Kennesaw",
    "state": "GA",
    "lat": 34.0381,
    "lon": -84.5829,
    "boxes": null,
    "volunteer": "Molly"
  }
]